[
  { "name": "Abandoned house", "lat": 56.05777098030569, "lng": -3.3821953124724096 },
  { "name": "Island of the Dolls", "lat": 19.2902, "lng": -99.0965 },
  { "name": "Poveglia Island", "lat": 45.3819, "lng": 12.3311 },
  { "name": "Hashima Island", "lat": 32.8085, "lng": 129.8250 },
  { "name": "Pripyat", "lat": 51.4041, "lng": 30.0571 },
  { "name": "The Boneyard", "lat": 32.1709, "lng": -110.8541 },
  { "name": "Kolmanskop", "lat": -26.7386, "lng": 15.2220 },
  { "name": "Rhyolite Ghost Town", "lat": 36.9005, "lng": -116.8273 },
  { "name": "Sathorn Tower", "lat": 13.7200, "lng": 100.5130 },
  { "name": "North Brother Island", "lat": 40.8014, "lng": -73.8771 },
  { "name": "Great Train Graveyard", "lat": -20.1990, "lng": -66.8336 },
  { "name": "Buzludzha Monument", "lat": 42.6806, "lng": 25.2167 },
  { "name": "Maunsell Sea Forts", "lat": 51.5000, "lng": 0.9000 },
  { "name": "Presidio Modelo", "lat": 21.8614, "lng": -82.7967 },
  { "name": "House of Communist Party", "lat": 42.6979, "lng": 23.3217 },
  { "name": "Molodyozhnaya Station", "lat": -66.6667, "lng": 93.0167 },
  { "name": "Spinalonga", "lat": 35.5275, "lng": 25.7669 },
  { "name": "Civita di Bagnoregio", "lat": 42.6369, "lng": 12.1060 },
  { "name": "Bodie", "lat": 38.2126, "lng": -119.0110 },
  { "name": "Wonderland Amusement Park", "lat": 40.1230, "lng": 116.2110 },
  { "name": "Fordlândia", "lat": -3.7031, "lng": -57.8651 },
  { "name": "Craco", "lat": 40.5247, "lng": 16.5092 },
  { "name": "San Zhi", "lat": 25.2817, "lng": 121.8522 },
  { "name": "Cinema 'Head in the Stars'", "lat": 31.2001, "lng": 29.9187 },
  { "name": "Bhangarh Fort", "lat": 27.1014, "lng": 76.2601 },
  { "name": "Submerged Airplane", "lat": 22.75, "lng": -74.22 },
  { "name": "Area 51", "lat": 37.2397, "lng": -115.8111 },
  { "name": "Nagoro Scarecrow Village", "lat": 33.8567, "lng": 134.0195 },
  { "name": "Cape Alevina / Mys Taran", "lat": 58.8381, "lng": 151.3462 },
  { "name": "Varosha", "lat": 35.1629, "lng": 33.9729 },
  { "name": "Centralia", "lat": 40.8134, "lng": -76.3396 },
  { "name": "Oradour-sur-Glane", "lat": 45.9167, "lng": 1.1000 },
  { "name": "Kayaköy", "lat": 36.7056, "lng": 29.1725 },
  { "name": "Beelitz-Heilstätten", "lat": 52.3556, "lng": 13.0937 },
  { "name": "Humberstone", "lat": -20.2276, "lng": -69.7721 },
  { "name": "Herculaneum", "lat": 40.7914, "lng": 14.3265 },
  { "name": "Bannerman Castle", "lat": 41.3705, "lng": -73.9437 },
  { "name": "Detroit Packard Plant", "lat": 42.3887, "lng": -83.0733 },
  { "name": "Manshiyat Naser", "lat": 30.0273, "lng": 31.2622 },
  { "name": "San Zhi Pod City", "lat": 25.2817, "lng": 121.8522 },
  { "name": "Aokigahara Forest", "lat": 35.4881, "lng": 138.5270 },
  { "name": "Six Flags Jazzland", "lat": 30.0891, "lng": -89.8687 },
  { "name": "Craco Vecchio", "lat": 40.5247, "lng": 16.5092 },
  { "name": "Beelitz Sanatorium", "lat": 52.3556, "lng": 13.0937 },
  { "name": "Bodie State Historic Park", "lat": 38.2126, "lng": -119.0110 },
  { "name": "Old Detroit Michigan Central Station", "lat": 42.3751, "lng": -83.0731 },
  { "name": "Tule Lake Segregation Center", "lat": 41.0408, "lng": -121.5667 },
  { "name": "Yubari Coal Mine", "lat": 43.0553, "lng": 141.8656 },
  { "name": "Mirny Diamond Mine", "lat": 62.5356, "lng": 113.9644 },
  { "name": "Varosha Ruins", "lat": 35.1631, "lng": 33.9725 },
  { "name": "Prypiat Amusement Park", "lat": 51.4042, "lng": 30.0570 },
  { "name": "Humberstone and Santa Laura", "lat": -20.2277, "lng": -69.7719 },
  { "name": "Detroit Packard Plant", "lat": 42.3886, "lng": -83.0729 },
  { "name": "Michigan Central Station", "lat": 42.3752, "lng": -83.0732 }
]
