[
  { "name": "Abandoned house", "lat": 56.05777098030569, "lng": -3.3821953124724096 },
  { "name": "Island of the Dolls", "lat": 19.2902, "lng": -99.0965 },
  { "name": "Poveglia Island", "lat": 45.3819, "lng": 12.3311 },
  { "name": "Hashima Island", "lat": 32.8085, "lng": 129.8250 },
  { "name": "Pripyat", "lat": 51.4041, "lng": 30.0571 },
  { "name": "The Boneyard", "lat": 32.1709, "lng": -110.8541 },
  { "name": "Kolmanskop", "lat": -26.7386, "lng": 15.2220 },
  { "name": "Rhyolite Ghost Town", "lat": 36.9005, "lng": -116.8273 },
  { "name": "Sathorn Tower", "lat": 13.7200, "lng": 100.5130 },
  { "name": "North Brother Island", "lat": 40.8014, "lng": -73.8771 },
  { "name": "Great Train Graveyard", "lat": -20.1990, "lng": -66.8336 },
  { "name": "Buzludzha Monument", "lat": 42.6806, "lng": 25.2167 },
  { "name": "Maunsell Sea Forts", "lat": 51.5000, "lng": 0.9000 },
  { "name": "Presidio Modelo", "lat": 21.8614, "lng": -82.7967 },
  { "name": "House of Communist Party", "lat": 42.6979, "lng": 23.3217 },
  { "name": "Molodyozhnaya Station", "lat": -66.6667, "lng": 93.0167 },
  { "name": "Spinalonga", "lat": 35.5275, "lng": 25.7669 },
  { "name": "Civita di Bagnoregio", "lat": 42.6369, "lng": 12.1060 },
  { "name": "Bodie", "lat": 38.2126, "lng": -119.0110 },
  { "name": "Wonderland Amusement Park", "lat": 40.1230, "lng": 116.2110 },
  { "name": "Fordlândia", "lat": -3.7031, "lng": -57.8651 },
  { "name": "Craco", "lat": 40.5247, "lng": 16.5092 },
  { "name": "San Zhi", "lat": 25.2817, "lng": 121.8522 },
  { "name": "Cinema 'Head in the Stars'", "lat": 31.2001, "lng": 29.9187 },
  { "name": "Bhangarh Fort", "lat": 27.1014, "lng": 76.2601 },
  { "name": "Submerged Airplane", "lat": 22.75, "lng": -74.22 },
  { "name": "Area 51", "lat": 37.2397, "lng": -115.8111 },
  { "name": "Nagoro Scarecrow Village", "lat": 33.8567, "lng": 134.0195 },
  { "name": "Cape Alevina / Mys Taran", "lat": 58.8381, "lng": 151.3462 },
  { "name": "Varosha", "lat": 35.1629, "lng": 33.9729 },
  { "name": "Centralia", "lat": 40.8134, "lng": -76.3396 },
  { "name": "Oradour-sur-Glane", "lat": 45.9167, "lng": 1.1000 },
  { "name": "Kayaköy", "lat": 36.7056, "lng": 29.1725 },
  { "name": "Beelitz-Heilstätten", "lat": 52.3556, "lng": 13.0937 },
  { "name": "Humberstone", "lat": -20.2276, "lng": -69.7721 },
  { "name": "Herculaneum", "lat": 40.7914, "lng": 14.3265 },
  { "name": "Bannerman Castle", "lat": 41.3705, "lng": -73.9437 },
  { "name": "Detroit Packard Plant", "lat": 42.3887, "lng": -83.0733 },
  { "name": "Manshiyat Naser", "lat": 30.0273, "lng": 31.2622 },
  { "name": "San Zhi Pod City", "lat": 25.2817, "lng": 121.8522 },
  { "name": "Aokigahara Forest", "lat": 35.4881, "lng": 138.5270 },
  { "name": "Six Flags Jazzland", "lat": 30.0891, "lng": -89.8687 },
  { "name": "Craco Vecchio", "lat": 40.5247, "lng": 16.5092 },
  { "name": "Beelitz Sanatorium", "lat": 52.3556, "lng": 13.0937 },
  { "name": "Bodie State Historic Park", "lat": 38.2126, "lng": -119.0110 },
  { "name": "Old Detroit Michigan Central Station", "lat": 42.3751, "lng": -83.0731 },
  { "name": "Tule Lake Segregation Center", "lat": 41.0408, "lng": -121.5667 },
  { "name": "Yubari Coal Mine", "lat": 43.0553, "lng": 141.8656 },
  { "name": "Mirny Diamond Mine", "lat": 62.5356, "lng": 113.9644 },
  { "name": "Varosha Ruins", "lat": 35.1631, "lng": 33.9725 },
  { "name": "Prypiat Amusement Park", "lat": 51.4042, "lng": 30.0570 },
  { "name": "Humberstone and Santa Laura", "lat": -20.2277, "lng": -69.7719 },
  { "name": "Detroit Packard Plant", "lat": 42.3886, "lng": -83.0729 },
  { "name": "Michigan Central Station", "lat": 42.3752, "lng": -83.0732 },
  { "name": "Kolmanskop Ghost Town", "lat": -26.7386, "lng": 15.2220 },
  { "name": "Rhyolite Ghost Town", "lat": 36.8999, "lng": -116.8280 },
  { "name": "Centralia Mine Fire", "lat": 40.8134, "lng": -76.3396 },
  { "name": "Bodie Ghost Town", "lat": 38.2127, "lng": -119.0111 },
  { "name": "Varosha Beach", "lat": 35.1633, "lng": 33.9727 },
  { "name": "Oradour-sur-Glane Village", "lat": 45.9170, "lng": 1.1005 },
  { "name": "Beelitz Heilstätten Hospital", "lat": 52.3556, "lng": 13.0935 },
  { "name": "Pripyat Amusement Park", "lat": 51.4041, "lng": 30.0572 },
  { "name": "Hashima Battleship Island", "lat": 32.8086, "lng": 129.8251 },
  { "name": "Spinalonga Island", "lat": 35.5276, "lng": 25.7668 },
  { "name": "Kayaköy Village", "lat": 36.7057, "lng": 29.1727 },
  { "name": "Bannerman Castle Ruins", "lat": 41.3707, "lng": -73.9438 },
  { "name": "North Brother Island Hospital", "lat": 40.8013, "lng": -73.8772 },
  { "name": "Molodyozhnaya Antarctic Station", "lat": -66.6667, "lng": 93.0168 },
  { "name": "Prypiat Hospital", "lat": 51.4043, "lng": 30.0569 },
  { "name": "San Zhi Pod City", "lat": 25.2816, "lng": 121.8523 },
  { "name": "Detroit Packard Plant", "lat": 42.3887, "lng": -83.0734 },
  { "name": "Michigan Central Station", "lat": 42.3753, "lng": -83.0733 },
  { "name": "Tule Lake Segregation Camp", "lat": 41.0407, "lng": -121.5665 },
  { "name": "Manshiyat Naser Garbage Village", "lat": 30.0272, "lng": 31.2623 },
  { "name": "Six Flags Jazzland Amusement Park", "lat": 30.0892, "lng": -89.8686 },
  { "name": "Nagoro Scarecrow Village", "lat": 33.8568, "lng": 134.0196 },
  { "name": "Beelitz Sanatorium", "lat": 52.3558, "lng": 13.0938 },
  { "name": "Buzludzha Monument", "lat": 42.6810, "lng": 25.2169 },
  { "name": "Great Train Graveyard", "lat": -20.1988, "lng": -66.8335 },
  { "name": "Wonderland Amusement Park", "lat": 40.1232, "lng": 116.2108 },
  { "name": "Fordlândia Rubber Plant", "lat": -3.7032, "lng": -57.8653 },
  { "name": "Cinema Head in the Stars", "lat": 31.2003, "lng": 29.9189 },
  { "name": "Aokigahara Forest", "lat": 35.4880, "lng": 138.5271 },
  { "name": "Craco Village", "lat": 40.5245, "lng": 16.5094 },
  { "name": "Herculaneum Ancient Ruins", "lat": 40.7916, "lng": 14.3267 },
  { "name": "Nagoro Village", "lat": 33.8570, "lng": 134.0194 },
  { "name": "Molokai Kalaupapa Leprosy Settlement", "lat": 21.1803, "lng": -157.0010 },
  { "name": "Gunkanjima Shipwreck", "lat": 32.8084, "lng": 129.8252 },
  { "name": "Bodie State Historic Park", "lat": 38.2125, "lng": -119.0112 },
  { "name": "Bhangarh Fort", "lat": 27.1015, "lng": 76.2603 },
  { "name": "Humberstone Saltpeter Works", "lat": -20.2278, "lng": -69.7718 },
  { "name": "Mirny Diamond Mine", "lat": 62.5357, "lng": 113.9643 },
  { "name": "Craco Vecchio", "lat": 40.5246, "lng": 16.5091 },
  { "name": "Cape Alevina Lighthouse", "lat": 58.8382, "lng": 151.3460 },
  { "name": "Beelitz Heilstätten Hospital Complex", "lat": 52.3554, "lng": 13.0939 },
  { "name": "Gunkanjima (Battleship Island)", "lat": 32.6270, "lng": 129.7386 },
  { "name": "Bannack Ghost Town", "lat": 45.1222, "lng": -112.7529 },
  { "name": "Centralia Coal Mine Fire", "lat": 40.8037, "lng": -76.3390 },
  { "name": "Ford Motor Plant (Detroit)", "lat": 42.3493, "lng": -83.0467 },
  { "name": "Hashima Island Coal Mine", "lat": 32.8056, "lng": 129.8160 },
  { "name": "Ravenholm (fictional, inspired)", "lat": 47.6101, "lng": -122.2015 },
  { "name": "Picher, Oklahoma", "lat": 36.9331, "lng": -94.8789 },
  { "name": "Thurmond, West Virginia", "lat": 37.3376, "lng": -81.0866 },
  { "name": "Pyramiden (Svalbard)", "lat": 78.6561, "lng": 16.2128 },
  { "name": "Dallol, Ethiopia", "lat": 14.2417, "lng": 40.3000 },
  { "name": "Gunkanjima Ruins", "lat": 32.6295, "lng": 129.7384 },
  { "name": "Kolmanskop Diamond Mine", "lat": -26.7372, "lng": 15.2225 },
  { "name": "Calico Ghost Town", "lat": 34.9709, "lng": -116.8595 },
  { "name": "Varosha Ghost Town", "lat": 35.1671, "lng": 33.9750 },
  { "name": "Craco Old Village", "lat": 40.5230, "lng": 16.5080 },
  { "name": "Oradour-sur-Glane Village", "lat": 45.9190, "lng": 1.0965 },
  { "name": "Bodie California", "lat": 38.2130, "lng": -119.0117 },
  { "name": "Duga Radar, Chernobyl", "lat": 51.4245, "lng": 30.0550 },
  { "name": "Chateau Miranda", "lat": 50.0197, "lng": 5.1265 },
  { "name": "Jatinga Village", "lat": 26.8189, "lng": 92.0889 },
  { "name": "Julesburg Abandoned Town", "lat": 40.9844, "lng": -102.2651 },
  { "name": "Chernobyl Exclusion Zone", "lat": 51.2762, "lng": 30.2215 },
  { "name": "Varosha Beach Resort", "lat": 35.1630, "lng": 33.9715 },
  { "name": "Kayaköy Village Ruins", "lat": 36.7035, "lng": 29.1698 },
  { "name": "Picher Lead-Zinc Mining District", "lat": 36.9307, "lng": -94.8776 },
  { "name": "Sanzhi UFO Houses", "lat": 25.2810, "lng": 121.8500 },
  { "name": "Molodyozhnaya Station", "lat": -66.6700, "lng": 92.9500 },
  { "name": "Nagoro Scarecrow Village", "lat": 33.8550, "lng": 134.0190 },
  { "name": "Centralia Pennsylvania", "lat": 40.8131, "lng": -76.3390 },
  { "name": "Six Flags New Orleans", "lat": 29.9824, "lng": -90.0978 },
  { "name": "Buzludzha Monument", "lat": 42.6835, "lng": 25.2220 },
  { "name": "Craco Abandoned Town", "lat": 40.5225, "lng": 16.5070 },
  { "name": "Beelitz-Heilstätten Hospital", "lat": 52.3540, "lng": 13.0900 },
  { "name": "San Zhi UFO Houses", "lat": 25.2800, "lng": 121.8500 },
  { "name": "Detroit Packard Plant", "lat": 42.3881, "lng": -83.0730 },
  { "name": "Bhangarh Fort", "lat": 27.1020, "lng": 76.2610 },
  { "name": "Humberstone Saltpeter Works", "lat": -20.2290, "lng": -69.7700 },
  { "name": "Aokigahara Forest", "lat": 35.4875, "lng": 138.5265 },
  { "name": "Mirny Diamond Mine", "lat": 62.5360, "lng": 113.9640 },
  { "name": "Bodie State Historic Park", "lat": 38.2120, "lng": -119.0100 },
  { "name": "Molokai Leper Colony", "lat": 21.1800, "lng": -157.0000 },
  { "name": "Goussainville-Vieux Pays", "lat": 49.0220, "lng": 2.4600 },
  { "name": "Kolmanskop Ghost Town", "lat": -26.7360, "lng": 15.2225 },
  { "name": "Fordlândia Rubber Plant", "lat": -3.7030, "lng": -57.8655 },
  { "name": "Pyramiden Mining Town", "lat": 78.6667, "lng": 16.3333 },
  { "name": "Ordos Kangbashi Ghost City", "lat": 39.6081, "lng": 109.7811 },
  { "name": "Hashima Island", "lat": 32.8050, "lng": 129.8255 },
  { "name": "Tarnowskie Góry Silver Mine", "lat": 50.4250, "lng": 18.8378 },
  { "name": "Sanatorium Świętego Wojciecha", "lat": 54.4420, "lng": 18.5500 },
  { "name": "Kayaköy Ghost Town", "lat": 36.7055, "lng": 29.1715 },
  { "name": "Kayaköy Village", "lat": 36.7048, "lng": 29.1712 },
  { "name": "Bannerman Castle Ruins", "lat": 41.3700, "lng": -73.9430 },
  { "name": "Pripyat Ghost City", "lat": 51.4025, "lng": 30.0565 },
  { "name": "Centralia Ghost Town", "lat": 40.8140, "lng": -76.3400 },
  { "name": "Craco Vecchio", "lat": 40.5230, "lng": 16.5090 },
  { "name": "San Zhi UFO Houses", "lat": 25.2810, "lng": 121.8520 },
  { "name": "Detroit Michigan Central Station", "lat": 42.3740, "lng": -83.0730 },
  { "name": "Molodyozhnaya Antarctic Station", "lat": -66.6700, "lng": 92.9700 },
  { "name": "Nagoro Scarecrow Village", "lat": 33.8550, "lng": 134.0190 },
  { "name": "Buzludzha Monument", "lat": 42.6800, "lng": 25.2170 },
  { "name": "Rhyolite Ghost Town", "lat": 36.9000, "lng": -116.8270 },
  { "name": "Tule Lake Segregation Center", "lat": 41.0410, "lng": -121.5670 },
  { "name": "Mirny Diamond Mine", "lat": 62.5360, "lng": 113.9630 },
  { "name": "Area 51", "lat": 37.2350, "lng": -115.8110 },
  { "name": "Sanzhi Pod City", "lat": 25.2810, "lng": 121.8520 },
  { "name": "Bhangarh Fort", "lat": 27.1000, "lng": 76.2600 },
  { "name": "Aokigahara Forest", "lat": 35.4870, "lng": 138.5270 },
  { "name": "Old Detroit Michigan Central Station", "lat": 42.3750, "lng": -83.0730 },
  { "name": "Beelitz-Heilstätten", "lat": 52.3550, "lng": 13.0940 },
  { "name": "North Brother Island", "lat": 40.8010, "lng": -73.8770 },
  { "name": "Great Train Graveyard", "lat": -20.1990, "lng": -66.8330 },
  { "name": "Molokai Kalaupapa Settlement", "lat": 21.1800, "lng": -157.0000 },
  { "name": "Sathorn Unique Tower", "lat": 13.7200, "lng": 100.5140 },
  { "name": "Beelitz Sanatorium", "lat": 52.3540, "lng": 13.0930 },
  { "name": "Cinema Head in the Stars", "lat": 31.2000, "lng": 29.9180 },
  { "name": "Kolmanskop Mine", "lat": -26.7380, "lng": 15.2230 },
  { "name": "Rhyolite Townsite", "lat": 36.9000, "lng": -116.8300 },
  { "name": "Detroit Packard Plant", "lat": 42.3880, "lng": -83.0730 },
  { "name": "Tarnowskie Góry", "lat": 50.4255, "lng": 18.8360 },
  { "name": "Fordlândia", "lat": -3.7030, "lng": -57.8650 },
  { "name": "Poveglia Island", "lat": 45.3810, "lng": 12.3310 },
  { "name": "Kolmanskop", "lat": -26.7390, "lng": 15.2225 },
  { "name": "Craco Old Town", "lat": 40.5250, "lng": 16.5100 },
  { "name": "Molodyozhnaya Station", "lat": -66.6660, "lng": 93.0160 },
  { "name": "Kayaköy Ruins", "lat": 36.7040, "lng": 29.1700 },
  { "name": "Belchite Ghost Town", "lat": 41.1086, "lng": -0.7762 },
  { "name": "Kayaköy Ruins", "lat": 36.7040, "lng": 29.1700 },
  { "name": "Tyneham Village", "lat": 50.6533, "lng": -2.1915 },
  { "name": "St. George's Hospital (UK)", "lat": 52.8012, "lng": -2.1798 },
  { "name": "Fort Wint Abandoned Barracks", "lat": 14.8191, "lng": 120.2595 },
  { "name": "Caroline Furnace School", "lat": 38.2569, "lng": -78.0023 },
  { "name": "Chernobyl Fire Station", "lat": 51.4076, "lng": 30.0629 },
  { "name": "Gary’s First United Methodist Church", "lat": 41.5924, "lng": -87.3464 },
  { "name": "Minsk State Circus (Belarus)", "lat": 53.9036, "lng": 27.5589 },
  { "name": "Severomorsk Hospital", "lat": 69.1524, "lng": 33.4093 },
  { "name": "Houtouwan Village (China)", "lat": 30.8430, "lng": 122.3935 },
  { "name": "Mirny UFO Radar Station", "lat": 62.5408, "lng": 113.9655 },
  { "name": "Ağdam Ghost City", "lat": 39.9910, "lng": 46.9950 },
  { "name": "Kolmanskop Northern Cemetery", "lat": -26.7395, "lng": 15.2240 },
  { "name": "Petaling Street Abandoned House", "lat": 3.1459, "lng": 101.6963 },
  { "name": "Rummu Prison Quarry", "lat": 59.4292, "lng": 24.3961 },
  { "name": "Ford City Teledyne Factory", "lat": 42.3397, "lng": -83.0475 },
  { "name": "Sanix Zenrin Hospital", "lat": 33.2350, "lng": 130.3840 },
  { "name": "Hotel del Salto", "lat": 4.7970, "lng": -74.0941 },
  { "name": "Villa Epecuén Ruins", "lat": -37.0444, "lng": -62.9506 },
  { "name": "Buffalo Central Terminal", "lat": 42.8871, "lng": -78.8597 },
  { "name": "MGM Grand Detroit", "lat": 42.3350, "lng": -83.0496 },
  { "name": "Famagusta Ghost Town", "lat": 35.1167, "lng": 33.9167 },
  { "name": "US Steel Gary Works", "lat": 41.5940, "lng": -87.3176 },
  { "name": "Makhnai Mine (Abandoned)", "lat": 50.5231, "lng": 15.1672 },
  { "name": "Centralia Cemetery", "lat": 40.8138, "lng": -76.3370 },
  { "name": "Stalin’s Dacha (Russia)", "lat": 55.8500, "lng": 37.3870 },
  { "name": "Florence City Factory", "lat": 43.7696, "lng": 11.2558 },
  { "name": "Nocton Hall (UK)", "lat": 53.1665, "lng": -0.2424 },
  { "name": "Coking Plant Bełchatów", "lat": 51.3689, "lng": 19.3565 },
  { "name": "Old Gaol, Dunedin", "lat": -45.8742, "lng": 170.5036 },
  { "name": "Sesriem Homestead Ruins", "lat": -24.6338, "lng": 15.9167 },
  { "name": "Sachsenburg Labour Camp", "lat": 50.9990, "lng": 14.4550 },
  { "name": "Pripyat Stadium", "lat": 51.4020, "lng": 30.0576 },
  { "name": "Fort Boggy Alligator Farm Exhibits", "lat": 30.0003, "lng": -95.0445 },
  { "name": "St. George’s Convalescent Home", "lat": 52.8010, "lng": -2.1800 },
  { "name": "Goli Otok Prison Camp", "lat": 44.9960, "lng": 14.7870 },
  { "name": "Baracoa Sugar Mill Ruins", "lat": 20.3560, "lng": -74.5060 },
  { "name": "Mitsubishi Engine Works", "lat": 32.8087, "lng": 129.8253 },
  { "name": "Fort de la Chartreuse", "lat": 45.1885, "lng": 5.7285 },
  { "name": "Sendai City Hospital", "lat": 38.2666, "lng": 140.8694 },
  { "name": "Abandoned Substation Berlin", "lat": 52.5206, "lng": 13.4098 },
  { "name": "Hotel Nacional Cuba Annex", "lat": 23.1322, "lng": -82.3730 },
  { "name": "Kolmanskop Swimming Pool", "lat": -26.7382, "lng": 15.2235 },
  { "name": "Domaine de l’Abandon (France)", "lat": 45.7640, "lng": 4.8357 },
  { "name": "Old Kurama Train Tunnel", "lat": 35.0345, "lng": 135.7944 },
  { "name": "Sredets Prison, Bulgaria", "lat": 42.6977, "lng": 23.3219 },
  { "name": "Avanhard Stadium (Pripyat)", "lat": 51.41058, "lng": 30.05439 },
  { "name": "Old Stadium (FC Stroitel Pripyat)", "lat": 51.39923, "lng": 30.06374 },
  { "name": "Belchite Ghost Town", "lat": 41.30583, "lng": -0.75083 },
  { "name": "Torre del Reloj (Belchite)", "lat": 41.30639, "lng": -0.75417 },
  { "name": "Almonacid de la Cuba (battle ruins)", "lat": 41.01700, "lng": -0.75700 },
  { "name": "Goli Otok Prison Camp", "lat": 44.9960, "lng": 14.7870 },
  { "name": "Tyneham Village", "lat": 50.6533, "lng": -2.1915 },
  { "name": "St. George's Hospital (Staffordshire)", "lat": 52.8012, "lng": -2.1798 },
  { "name": "Caroline Furnace School (VA)", "lat": 38.2569, "lng": -78.0023 },
  { "name": "Glenrio Ghost Town", "lat": 35.1994, "lng": -103.0158 },
  { "name": "Calico Ghost Town", "lat": 34.9709, "lng": -116.8595 },
  { "name": "Belchite Ruins – Lobo Hill", "lat": 41.3000, "lng": -0.7450 },
  { "name": "Fort Wint Barracks", "lat": 14.8191, "lng": 120.2595 },
  { "name": "Buffalo Central Terminal", "lat": 42.8871, "lng": -78.8597 },
  { "name": "MGM Grand Detroit (abandoned)", "lat": 42.3350, "lng": -83.0496 },
  { "name": "Stalin’s Dacha (Russia)", "lat": 55.8500, "lng": 37.3870 },
  { "name": "Nocton Hall (UK)", "lat": 53.1665, "lng": -0.2424 },
  { "name": "Sanzhi Pod City", "lat": 25.2810, "lng": 121.8520 },
  { "name": "US Steel Gary Works", "lat": 41.5940, "lng": -87.3176 },
  { "name": "Houtouwan Village (China)", "lat": 30.8430, "lng": 122.3935 },
  { "name": "Rummu Prison Quarry", "lat": 59.4292, "lng": 24.3961 },
  { "name": "Mirny Radar Station", "lat": 62.5408, "lng": 113.9655 },
  { "name": "Ağdam Ghost City (Azerbaijan)", "lat": 39.9910, "lng": 46.9950 },
  { "name": "Petaling Street Abandoned House", "lat": 3.1459, "lng": 101.6963 },
  { "name": "Hotel del Salto (Colombia)", "lat": 4.7970, "lng": -74.0941 },
  { "name": "Villa Epecuén Ruins", "lat": -37.0444, "lng": -62.9506 },
  { "name": "Florence Factory Ruins (Italy)", "lat": 43.7696, "lng": 11.2558 },
  { "name": "Nocton Hall (England)", "lat": 53.1665, "lng": -0.2424 },
  { "name": "Coking Plant Bełchatów (Poland)", "lat": 51.3689, "lng": 19.3565 },
  { "name": "Old Gaol Dunedin", "lat": -45.8742, "lng": 170.5036 },
  { "name": "Sesriem Homestead Ruins", "lat": -24.6338, "lng": 15.9167 },
  { "name": "Sachsenburg Labour Camp (Czechia)", "lat": 50.9990, "lng": 14.4550 },
  { "name": "Pripyat Stadium", "lat": 51.4020, "lng": 30.0576 },
  { "name": "Fort Boggy Abandoned Exhibits", "lat": 30.0003, "lng": -95.0445 },
  { "name": "Baracoa Sugar Mill Ruins (Cuba)", "lat": 20.3560, "lng": -74.5060 },
  { "name": "Mitsubishi Engine Works (Hashima)", "lat": 32.8087, "lng": 129.8253 },
  { "name": "Fort de la Chartreuse (France)", "lat": 45.1885, "lng": 5.7285 },
  { "name": "Sendai City Hospital Ruins", "lat": 38.2666, "lng": 140.8694 },
  { "name": "Abandoned Substation Berlin", "lat": 52.5206, "lng": 13.4098 },
  { "name": "Hotel Nacional Cuba Annex", "lat": 23.1322, "lng": -82.3730 },
  { "name": "Kolmanskop Swimming Pool", "lat": -26.7382, "lng": 15.2235 },
  { "name": "Domaine de l’Abandon (France)", "lat": 45.7640, "lng": 4.8357 },
  { "name": "Old Kurama Train Tunnel", "lat": 35.0345, "lng": 135.7944 },
  { "name": "Sredets Prison (Bulgaria)", "lat": 42.6977, "lng": 23.3219 },
  { "name": "Goli Otok Prison", "lat": 44.9960, "lng": 14.7870 },
  { "name": "Humberstone Saltpeter Works", "lat": -20.2278, "lng": -69.7718 },
  { "name": "Buffalo Central Terminal Ruins", "lat": 42.8871, "lng": -78.8597 },
  { "name": "St. George’s Convalescent Home", "lat": 52.8010, "lng": -2.1800 },
  { "name": "ConCrete Factory", "lat": 56.02478878504682, "lng": -3.4185222657962604 },
  { "name": "pier", "lat":56.02450788120014, "lng": -3.386172115821276 },
  { "name": "millary site", "lat": 56.00078527650557, "lng": -3.3861958540583315 },
  { "name": "house", "lat": 55.99213000612191, "lng": -3.421339710268066 },
  { "name": "house", "lat": 55.99320283261773, "lng": -3.4187523164123172 },
  { "name": " ", "lat": , "lng":  },
  { "name": " ", "lat": , "lng":  },
  { "name": " ", "lat": , "lng":  },
  { "name": " ", "lat": , "lng":  },
  { "name": " ", "lat": , "lng":  },
  { "name": " ", "lat": , "lng":  },
  { "name": " ", "lat": , "lng":  },
]
